[
  {"obdb_id":"10-56-brewing-company-knox","name":"10-56 Brewing Company","brewery_type":"micro","street":"400 Brown Cir","address_2":"","address_3":"","city":"Knox","state":"Indiana","county_province":"","postal_code":"46534","website_url":"","phone":"6308165790","country":"United States","longitude":"-86.627954","latitude":"41.289715","tags":""},{"obdb_id":"10-barrel-brewing-co-bend-1","name":"10 Barrel Brewing Co","brewery_type":"large","street":"62970 18th St","address_2":"","address_3":"","city":"Bend","state":"Oregon","county_province":"","postal_code":"97701-9847","website_url":"http://www.10barrel.com","phone":"5415851007","country":"United States","longitude":"","latitude":"","tags":""},{"obdb_id":"10-barrel-brewing-co-bend-2","name":"10 Barrel Brewing Co","brewery_type":"large","street":"1135 NW Galveston Ave Ste B","address_2":"","address_3":"","city":"Bend","state":"Oregon","county_province":"","postal_code":"97703-2465","website_url":"","phone":"5415851007","country":"United States","longitude":"","latitude":"","tags":""},{"obdb_id":"10-barrel-brewing-co-bend-pub-bend","name":"10 Barrel Brewing Co - Bend Pub","brewery_type":"large","street":"62950 NE 18th St","address_2":"","address_3":"","city":"Bend","state":"Oregon","county_province":"","postal_code":"97701","website_url":"","phone":"5415851007","country":"United States","longitude":"-121.2809536","latitude":"44.0912109","tags":""},{"obdb_id":"10-barrel-brewing-co-boise-boise","name":"10 Barrel Brewing Co - Boise","brewery_type":"large","street":"826 W Bannock St","address_2":"","address_3":"","city":"Boise","state":"Idaho","county_province":"","postal_code":"83702-5857","website_url":"http://www.10barrel.com","phone":"2083445870","country":"United States","longitude":"-116.202929","latitude":"43.618516","tags":""},{"obdb_id":"10-barrel-brewing-co-denver-denver","name":"10 Barrel Brewing Co - Denver","brewery_type":"large","street":"2620 Walnut St","address_2":"","address_3":"","city":"Denver","state":"Colorado","county_province":"","postal_code":"80205-2231","website_url":"","phone":"7205738992","country":"United States","longitude":"-104.9853655","latitude":"39.7592508","tags":""},{"obdb_id":"10-barrel-brewing-co-portland","name":"10 Barrel Brewing Co","brewery_type":"large","street":"1411 NW Flanders St","address_2":"","address_3":"","city":"Portland","state":"Oregon","county_province":"","postal_code":"97209-2620","website_url":"http://www.10barrel.com","phone":"5032241700","country":"United States","longitude":"-122.6855056","latitude":"45.5259786","tags":""},{"obdb_id":"10-barrel-brewing-co-san-diego","name":"10 Barrel Brewing Co","brewery_type":"large","street":"1501 E St","address_2":"","address_3":"","city":"San Diego","state":"California","county_province":"","postal_code":"92101-6618","website_url":"http://10barrel.com","phone":"6195782311","country":"United States","longitude":"-117.129593","latitude":"32.714813","tags":""},{"obdb_id":"10-torr-distilling-and-brewing-reno","name":"10 Torr Distilling and Brewing","brewery_type":"micro","street":"490 Mill St","address_2":"","address_3":"","city":"Reno","state":"Nevada","county_province":"","postal_code":"89502","website_url":"http://www.10torr.com","phone":"7755307014","country":"United States","longitude":"-119.7732015","latitude":"39.5171702","tags":""},{"obdb_id":"101-brewery-quilcene","name":"101 Brewery","brewery_type":"brewpub","street":"294793 US Highway 101","address_2":"","address_3":"","city":"Quilcene","state":"Washington","county_province":"","postal_code":"98376-9000","website_url":"http://www.101brewery.com","phone":"3607656485","country":"United States","longitude":"-122.87558226136872","latitude":"47.823475773720666","tags":""},{"obdb_id":"101-north-brewing-company-petaluma","name":"101 North Brewing Company","brewery_type":"micro","street":"1304 Scott St Ste D","address_2":"","address_3":"","city":"Petaluma","state":"California","county_province":"","postal_code":"94954-7100","website_url":"http://www.101northbeer.com","phone":"7077534934","country":"United States","longitude":"","latitude":"","tags":""},{"obdb_id":"105-west-brewing-co-castle-rock","name":"105 West Brewing Co","brewery_type":"micro","street":"1043 Park St","address_2":"","address_3":"","city":"Castle Rock","state":"Colorado","county_province":"","postal_code":"80109-1585","website_url":"http://www.105westbrewing.com","phone":"3033257321","country":"United States","longitude":"-104.8667206","latitude":"39.38269495","tags":""},{"obdb_id":"10k-brewing-anoka","name":"10K Brewing","brewery_type":"micro","street":"2005 2nd Ave","address_2":"","address_3":"","city":"Anoka","state":"Minnesota","county_province":"","postal_code":"55303-2243","website_url":"http://10KBrew.com","phone":"7633924753","country":"United States","longitude":"-93.38952559","latitude":"45.19812039","tags":""},{"obdb_id":"10th-district-brewing-company-abington","name":"10th District Brewing Company","brewery_type":"micro","street":"491 Washington St","address_2":"","address_3":"","city":"Abington","state":"Massachusetts","county_province":"","postal_code":"02351-2419","website_url":"http://www.10thdistrictbrewing.com","phone":"7813071554","country":"United States","longitude":"-70.94594149","latitude":"42.10591754","tags":""},{"obdb_id":"11-below-brewing-company-houston","name":"11 Below Brewing Company","brewery_type":"micro","street":"6820 Bourgeois Rd","address_2":"","address_3":"","city":"Houston","state":"Texas","county_province":"","postal_code":"77066-3107","website_url":"http://www.11belowbrewing.com","phone":"2814442337","country":"United States","longitude":"-95.5186591","latitude":"29.9515464","tags":""},{"obdb_id":"1188-brewing-co-john-day","name":"1188 Brewing Co","brewery_type":"brewpub","street":"141 E Main St","address_2":"","address_3":"","city":"John Day","state":"Oregon","county_province":"","postal_code":"97845-1210","website_url":"http://www.1188brewing.com","phone":"5415751188","country":"United States","longitude":"-118.9218754","latitude":"44.4146563","tags":""},{"obdb_id":"12-acres-brewing-company-killeshin","name":"12 Acres Brewing Company","brewery_type":"micro","street":"Unnamed Street","address_2":"Clonmore","address_3":"","city":"Killeshin","state":"","county_province":"Laois","postal_code":"R93 X3X8","website_url":"https://12acresbrewing.ie/","phone":"3.53599E+11","country":"Ireland","longitude":"-6.979343891","latitude":"52.84930763","tags":""},{"obdb_id":"12-gates-brewing-company-williamsville","name":"12 Gates Brewing Company","brewery_type":"brewpub","street":"80 Earhart Dr Ste 20","address_2":"","address_3":"","city":"Williamsville","state":"New York","county_province":"","postal_code":"14221-7804","website_url":"http://www.12gatesbrewing.com","phone":"7169066600","country":"United States","longitude":"","latitude":"","tags":""},{"obdb_id":"12-west-brewing-company-gilbert","name":"12 West Brewing Company","brewery_type":"micro","street":"3000 E Ray Rd Bldg 6","address_2":"","address_3":"","city":"Gilbert","state":"Arizona","county_province":"","postal_code":"85296-7832","website_url":"http://www.12westbrewing.com","phone":"6023395014","country":"United States","longitude":"","latitude":"","tags":""},{"obdb_id":"12-west-brewing-company-production-facility-mesa","name":"12 West Brewing Company - Production Facility","brewery_type":"micro","street":"","address_2":"","address_3":"","city":"Mesa","state":"Arizona","county_province":"","postal_code":"85207","website_url":"","phone":"","country":"United States","longitude":"-111.5860662","latitude":"33.436188","tags":""},{"obdb_id":"122-west-brewing-co-bellingham","name":"122 West Brewing Co","brewery_type":"closed","street":"2416 Meridian St","address_2":"","address_3":"","city":"Bellingham","state":"Washington","county_province":"","postal_code":"98225-2405","website_url":"https://www.122westbrew.com/","phone":"3603063285","country":"United States","longitude":"-122.485982","latitude":"48.7621709","tags":""},{"obdb_id":"127-brewing-jackson","name":"127 Brewing","brewery_type":"micro","street":"3090 Shirley Dr","address_2":"","address_3":"","city":"Jackson","state":"Michigan","county_province":"","postal_code":"49201-7010","website_url":"","phone":"5172581346","country":"United States","longitude":"-84.43116792","latitude":"42.28667212","tags":""},{"obdb_id":"12degree-brewing-louisville","name":"12Degree Brewing","brewery_type":"brewpub","street":"820 Main St","address_2":"","address_3":"","city":"Louisville","state":"Colorado","county_province":"","postal_code":"80027-1865","website_url":"http://www.12degree.com","phone":"3035791004","country":"United States","longitude":"-105.1319826","latitude":"39.9782443","tags":""},{"obdb_id":"12welve-eyes-brewing-saint-paul","name":"12welve Eyes Brewing","brewery_type":"micro","street":"141 E 4th St Ste LL2","address_2":"","address_3":"","city":"Saint Paul","state":"Minnesota","county_province":"","postal_code":"55101-1639","website_url":"http://www.12welveEyes.com","phone":"6514938106","country":"United States","longitude":"","latitude":"","tags":""},{"obdb_id":"13-below-brewery-cincinnati","name":"13 Below Brewery","brewery_type":"micro","street":"7391 Forbes Rd","address_2":"","address_3":"","city":"Cincinnati","state":"Ohio","county_province":"","postal_code":"45233-1013","website_url":"http://www.13belowbrewery.com","phone":"5139750613","country":"United States","longitude":"-84.70634815","latitude":"39.12639764","tags":""},{"obdb_id":"13-stripes-brewery-taylors","name":"13 Stripes Brewery","brewery_type":"brewpub","street":"250 Mill St, Suite PW3101","address_2":"","address_3":"","city":"Taylors","state":"South Carolina","county_province":"","postal_code":"29687","website_url":"http://www.13StripesBrewery.com","phone":"8643491430","country":"United States","longitude":"","latitude":"","tags":""},{"obdb_id":"13-virtues-brewing-co-portland","name":"13 Virtues Brewing Co","brewery_type":"brewpub","street":"6410 SE Milwaukie Ave","address_2":"","address_3":"","city":"Portland","state":"Oregon","county_province":"","postal_code":"97202-5518","website_url":"http://www.13virtuesbrewing.com","phone":"5032393831","country":"United States","longitude":"-122.6487531","latitude":"45.4762536","tags":""},{"obdb_id":"1323-r-and-d-raleigh","name":"1323 R & D","brewery_type":"micro","street":"1323 Capital Blvd 1323 R and D","address_2":"","address_3":"","city":"Raleigh","state":"North Carolina","county_province":"","postal_code":"27603-1117","website_url":"http://www.1323rnd.com","phone":"9199775654","country":"United States","longitude":"","latitude":"","tags":""},{"obdb_id":"14-cannons-brewing-company-westlake-village","name":"14 Cannons Brewing Company","brewery_type":"micro","street":"31125 Via Colinas Ste 907","address_2":"","address_3":"","city":"Westlake Village","state":"California","county_province":"","postal_code":"91362-3974","website_url":"http://14cannons.com","phone":"8186996165","country":"United States","longitude":"-118.802397","latitude":"34.15334","tags":""},{"obdb_id":"14-lakes-brewery-crosslake","name":"14 Lakes Brewery","brewery_type":"micro","street":"","address_2":"","address_3":"","city":"Crosslake","state":"Minnesota","county_province":"","postal_code":"56442","website_url":"","phone":"2186924129","country":"United States","longitude":"","latitude":"","tags":""},{"obdb_id":"14er-brewing-company-denver","name":"14er Brewing Company","brewery_type":"proprietor","street":"2801 Walnut St","address_2":"","address_3":"","city":"Denver","state":"Colorado","county_province":"","postal_code":"80205-2235","website_url":"http://www.14erBrewing.com","phone":"7207731437","country":"United States","longitude":"-104.9839636","latitude":"39.7614112","tags":""},{"obdb_id":"14th-star-brewing-saint-albans","name":"14th Star Brewing","brewery_type":"micro","street":"133 N Main St Ste 7","address_2":"","address_3":"","city":"Saint Albans","state":"Vermont","county_province":"","postal_code":"05478-1735","website_url":"http://www.14thstarbrewing.com","phone":"8025285988","country":"United States","longitude":"","latitude":"","tags":""},{"obdb_id":"16-lots-brewing-mason","name":"16 Lots Brewing","brewery_type":"brewpub","street":"753 Reading Rd","address_2":"","address_3":"","city":"Mason","state":"Ohio","county_province":"","postal_code":"45040-1303","website_url":"http://www.16lots.com","phone":"5134863672","country":"United States","longitude":"-84.3183801","latitude":"39.3545967","tags":""},{"obdb_id":"16-mile-brewing-co-georgetown","name":"16 Mile Brewing Co","brewery_type":"micro","street":"413 S Bedford St","address_2":"","address_3":"","city":"Georgetown","state":"Delaware","county_province":"","postal_code":"19947-1849","website_url":"http://www.16milebrewery.com","phone":"3022538816","country":"United States","longitude":"-75.37816436","latitude":"38.6788938","tags":""},{"obdb_id":"16-stone-brewpub-holland-patent","name":"16 Stone Brewpub","brewery_type":"brewpub","street":"9542 Main St","address_2":"","address_3":"","city":"Holland Patent","state":"New York","county_province":"","postal_code":"13354","website_url":"http://www.16stonebrewpub.com","phone":"3158658500","country":"United States","longitude":"-75.2565195","latitude":"43.24211175","tags":""},{"obdb_id":"1623-brewing-co-llc-westminister","name":"1623 Brewing CO, llc","brewery_type":"contract","street":"1146 colonel Joshua Ct","address_2":"","address_3":"","city":"Westminister","state":"Maryland","county_province":"","postal_code":"21157","website_url":"","phone":"","country":"United States","longitude":"","latitude":"","tags":""},{"obdb_id":"1718-ocracoke-brewing-ocracoke","name":"1718 Ocracoke Brewing","brewery_type":"brewpub","street":"1129 Irvin Garrish Hwy","address_2":"","address_3":"","city":"Ocracoke","state":"North Carolina","county_province":"","postal_code":"27960","website_url":"http://www.ocracokebrewing.com","phone":"2529282337","country":"United States","longitude":"-75.97176063","latitude":"35.10715368","tags":""},{"obdb_id":"1781-brewing-company-spotsylvania","name":"1781 Brewing Company","brewery_type":"micro","street":"11109 Plank Rd","address_2":"","address_3":"","city":"Spotsylvania","state":"Virginia","county_province":"","postal_code":"22553-4258","website_url":"","phone":"5408412598","country":"United States","longitude":"","latitude":"","tags":""},{"obdb_id":"180-and-tapped-coraopolis","name":"180 and Tapped","brewery_type":"micro","street":"2010 A State Ave","address_2":"","address_3":"","city":"Coraopolis","state":"Pennsylvania","county_province":"","postal_code":"15108","website_url":"http://www.180andtapped.com","phone":"4127375273","country":"United States","longitude":"-80.15020356","latitude":"40.50984957","tags":""},{"obdb_id":"1817-brewery-okolona","name":"1817 Brewery","brewery_type":"micro","street":"100 B South Olive St","address_2":"","address_3":"","city":"okolona","state":"Mississippi","county_province":"","postal_code":"38860","website_url":"","phone":"6623055907","country":"United States","longitude":"-88.750264","latitude":"34.001703","tags":""},{"obdb_id":"1840-brewing-company-milwaukee","name":"1840 Brewing Company","brewery_type":"micro","street":"342 E Ward St","address_2":"","address_3":"","city":"Milwaukee","state":"Wisconsin","county_province":"","postal_code":"53207-1348","website_url":"http://www.1840brewing.com","phone":"4142364056","country":"United States","longitude":"-87.90606942","latitude":"43.00436242","tags":""},{"obdb_id":"1850-brewing-company-mariposa","name":"1850 Brewing Company","brewery_type":"micro","street":"","address_2":"","address_3":"","city":"Mariposa","state":"California","county_province":"","postal_code":"95338","website_url":"http://www.1850restaurant.com","phone":"","country":"United States","longitude":"-119.9036592","latitude":"37.570148","tags":""},{"obdb_id":"18th-street-brewery-gary","name":"18th Street Brewery","brewery_type":"micro","street":"5725 Miller Ave","address_2":"","address_3":"","city":"Gary","state":"Indiana","county_province":"","postal_code":"46403-2871","website_url":"http://www.18thstreetbrewery.com","phone":"","country":"United States","longitude":"-87.26887786","latitude":"41.59928343","tags":""},{"obdb_id":"18th-street-brewery-hammond","name":"18th Street Brewery","brewery_type":"micro","street":"5417 Oakley Ave","address_2":"","address_3":"","city":"Hammond","state":"Indiana","county_province":"","postal_code":"46320-1817","website_url":"","phone":"","country":"United States","longitude":"-87.517422","latitude":"41.61556796","tags":""},{"obdb_id":"1905-brewing-company-assumption","name":"1905 Brewing Company","brewery_type":"micro","street":"1301 S Chestnut St","address_2":"","address_3":"","city":"Assumption","state":"Illinois","county_province":"","postal_code":"62510-8504","website_url":"http://1905BrewingCompany.com","phone":"2172549374","country":"United States","longitude":"-89.0503635","latitude":"39.5172564","tags":""},{"obdb_id":"1912-brewing-tucson","name":"1912 Brewing","brewery_type":"micro","street":"2045 N Forbes Blvd Ste 105","address_2":"","address_3":"","city":"Tucson","state":"Arizona","county_province":"","postal_code":"85745-1444","website_url":"http://www.1912brewing.com","phone":"5202564851","country":"United States","longitude":"-110.9927505","latitude":"32.24673727","tags":""},{"obdb_id":"192-brewing-kenmore","name":"192 Brewing","brewery_type":"micro","street":"7324 NE 175th St","address_2":"","address_3":"","city":"Kenmore","state":"Washington","county_province":"","postal_code":"98028-2500","website_url":"http://www.192brewing.com","phone":"4254242337","country":"United States","longitude":"-122.2415652","latitude":"47.75670075","tags":""},{"obdb_id":"1940s-brewing-company-holbrook","name":"1940's Brewing Company","brewery_type":"micro","street":"1337 Lincoln Ave Unit 1","address_2":"","address_3":"","city":"Holbrook","state":"New York","county_province":"","postal_code":"11741-2275","website_url":"http://www.1940sbrewingcompany.com","phone":"6315334838","country":"United States","longitude":"","latitude":"","tags":""},{"obdb_id":"1st-republic-brewing-co-essex-junction","name":"1st Republic Brewing Co","brewery_type":"micro","street":"39 River Rd Ste 6","address_2":"","address_3":"","city":"Essex Junction","state":"Vermont","county_province":"","postal_code":"05452-3879","website_url":"http://www.1strepublic-homebrew.com","phone":"8028575318","country":"United States","longitude":"","latitude":"","tags":""},{"obdb_id":"2-basset-brewery-white-sulphur-springs","name":"2 Basset Brewery","brewery_type":"micro","street":"202 E Main St","address_2":"","address_3":"","city":"White Sulphur Springs","state":"Montana","county_province":"","postal_code":"59645-9081","website_url":"http://www.2bassetbrewery.com","phone":"4065472337","country":"United States","longitude":"-110.9004865","latitude":"46.54807609","tags":""},{"obdb_id":"2-dogz-and-a-guy-brewing-montrose","name":"2 Dogz and A Guy Brewing","brewery_type":"micro","street":"228 Church St","address_2":"","address_3":"","city":"Montrose","state":"Pennsylvania","county_province":"","postal_code":"18801-1271","website_url":"http://2dogzandaguybrewing.com","phone":"5704320069","country":"United States","longitude":"-75.8800318","latitude":"41.8336364","tags":""},{"obdb_id":"2-feet-brewing-company-bangor","name":"2 Feet Brewing Company","brewery_type":"brewpub","street":"80 Columbia St","address_2":"","address_3":"","city":"Bangor","state":"Maine","county_province":"","postal_code":"04401-6319","website_url":"http://www.2feetbrewing.com","phone":"2075731979","country":"United States","longitude":"-68.77283099","latitude":"44.80012684","tags":""},{"obdb_id":"2-row-brewing-midvale","name":"2 Row Brewing","brewery_type":"micro","street":"6856 S 300 W","address_2":"","address_3":"","city":"Midvale","state":"Utah","county_province":"","postal_code":"84047-1083","website_url":"http://www.2rowbrewing.com","phone":"8019878663","country":"United States","longitude":"-111.9007652","latitude":"40.5950202","tags":""},{"obdb_id":"2-silos-brewing-company-manassas","name":"2 Silos Brewing Company","brewery_type":"micro","street":"9925 Discovery Blvd","address_2":"","address_3":"","city":"Manassas","state":"Virginia","county_province":"","postal_code":"20109","website_url":"http://www.2silosbrewing.com","phone":"7034202257","country":"United States","longitude":"","latitude":"","tags":""},{"obdb_id":"2-tones-brewing-co-whitehall","name":"2 Tones Brewing Co.","brewery_type":"micro","street":"4539 E Broad St","address_2":"","address_3":"","city":"Whitehall","state":"Ohio","county_province":"","postal_code":"43213-1308","website_url":"http://www.2tonesbrewingco.com","phone":"","country":"United States","longitude":"-82.9118174","latitude":"40.0030689","tags":""},{"obdb_id":"2-tread-brewing-co-santa-rosa","name":"2 Tread Brewing Co","brewery_type":"brewpub","street":"1018 Santa Rosa Plz","address_2":"","address_3":"","city":"Santa Rosa","state":"California","county_province":"","postal_code":"95401-6399","website_url":"http://www.2treadbrewing.com","phone":"4152330857","country":"United States","longitude":"-122.7167729","latitude":"38.4387767","tags":""},{"obdb_id":"2-way-brewing-company-beacon","name":"2 Way Brewing Company","brewery_type":"brewpub","street":"18 W Main St","address_2":"","address_3":"","city":"Beacon","state":"New York","county_province":"","postal_code":"12508-2512","website_url":"http://www.2waybrewingcompany.com","phone":"8452027334","country":"United States","longitude":"-73.9809868","latitude":"41.5082102","tags":""},{"obdb_id":"2-witches-winery-and-brewing-company-danville","name":"2 Witches Winery and Brewing Company","brewery_type":"micro","street":"209 Trade St","address_2":"","address_3":"","city":"Danville","state":"Virginia","county_province":"","postal_code":"24541-3545","website_url":"http://www.2witcheswinebrew.com","phone":"4345492739","country":"United States","longitude":"-79.42125553","latitude":"36.58590349","tags":""},{"obdb_id":"20-corners-brewing-llc-woodinville","name":"20 Corners Brewing LLC","brewery_type":"brewpub","street":"14148 NE 190th St Ste A","address_2":"","address_3":"","city":"Woodinville","state":"Washington","county_province":"","postal_code":"98072-8437","website_url":"http://www.20cornersbrewing.com","phone":"4253755223","country":"United States","longitude":"-122.1517007","latitude":"47.76864300772501","tags":""},{"obdb_id":"210-brewing-co-arlington","name":"210 Brewing Co","brewery_type":"brewpub","street":"3438 Stoluckquamish Ln","address_2":"","address_3":"","city":"Arlington","state":"Washington","county_province":"","postal_code":"98223-9056","website_url":"http://www.angelofthewind.com","phone":"3604749740","country":"United States","longitude":"-122.18421","latitude":"48.215096","tags":""},{"obdb_id":"212-brewing-company-davenport","name":"212 Brewing Company","brewery_type":"contract","street":"21476 Route 23","address_2":"","address_3":"","city":"Davenport","state":"New York","county_province":"","postal_code":"13750","website_url":"","phone":"2123779050","country":"United States","longitude":"","latitude":"","tags":""},{"obdb_id":"217-brew-works-wilson","name":"217 Brew Works","brewery_type":"micro","street":"217 South St S","address_2":"","address_3":"","city":"Wilson","state":"North Carolina","county_province":"","postal_code":"27893-4911","website_url":"","phone":"2529916959","country":"United States","longitude":"-77.9120318","latitude":"35.7227625","tags":""},{"obdb_id":"21st-amendment-brewery-cafe-san-francisco","name":"21st Amendment Brewery Cafe","brewery_type":"brewpub","street":"563 2nd St","address_2":"","address_3":"","city":"San Francisco","state":"California","county_province":"","postal_code":"94107-1411","website_url":"http://www.21st-amendment.com","phone":"4153690900","country":"United States","longitude":"-122.3925769","latitude":"37.782448","tags":""},{"obdb_id":"21st-amendment-brewery-san-leandro","name":"21st Amendment Brewery","brewery_type":"regional","street":"2010 Williams St Unit A","address_2":"","address_3":"","city":"San Leandro","state":"California","county_province":"","postal_code":"94577-2334","website_url":"http://www.21st-Amendment.com","phone":"5105952111","country":"United States","longitude":"","latitude":"","tags":""},{"obdb_id":"21st-st-brewers-bar-saint-louis","name":"21st St Brewers Bar","brewery_type":"brewpub","street":"2017 Chouteau Ave","address_2":"","address_3":"","city":"Saint Louis","state":"Missouri","county_province":"","postal_code":"63103","website_url":"http://www.21stbrew.com","phone":"3142416969","country":"United States","longitude":"-90.213781","latitude":"38.624291","tags":""},{"obdb_id":"23-brewing-company-lizzie-bs-cafe-prestonsburg","name":"23 Brewing Company / Lizzie B's Cafe","brewery_type":"brewpub","street":"2010 KY Route 321","address_2":"","address_3":"","city":"Prestonsburg","state":"Kentucky","county_province":"","postal_code":"41653-9103","website_url":"http://www.23brewingcompany.com","phone":"6068862844","country":"United States","longitude":"","latitude":"","tags":""},{"obdb_id":"238-brewing-company-mead","name":"238 Brewing Company","brewery_type":"closed","street":"10321 E Day Mt Spokane Rd","address_2":"","address_3":"","city":"Mead","state":"Washington","county_province":"","postal_code":"99021","website_url":"http://www.238brewing.com","phone":"5092382739","country":"United States","longitude":"","latitude":"","tags":""},{"obdb_id":"23rd-street-brewery-lawrence","name":"23rd Street Brewery","brewery_type":"brewpub","street":"3512 Clinton Pkwy","address_2":"","address_3":"","city":"Lawrence","state":"Kansas","county_province":"","postal_code":"66047-2145","website_url":"http://www.brew23.com","phone":"7858562337","country":"United States","longitude":"-95.28093353","latitude":"38.9429674","tags":""},{"obdb_id":"26-degree-brewing-company-pompano-beach","name":"26 Degree Brewing Company","brewery_type":"micro","street":"2600 E Atlantic Blvd","address_2":"","address_3":"","city":"Pompano Beach","state":"Florida","county_province":"","postal_code":"33062-4940","website_url":"","phone":"9545326964","country":"United States","longitude":"-80.1224169","latitude":"26.2316338","tags":""},{"obdb_id":"28th-state-brewing-houston","name":"28th State Brewing","brewery_type":"planning","street":"","address_2":"","address_3":"","city":"Houston","state":"Texas","county_province":"","postal_code":"77095-6933","website_url":"","phone":"","country":"United States","longitude":"","latitude":"","tags":""},{"obdb_id":"2c-family-brewing-co-nampa","name":"2C Family Brewing Co.","brewery_type":"micro","street":"1215 1st St S","address_2":"","address_3":"","city":"Nampa","state":"Idaho","county_province":"","postal_code":"83651-3957","website_url":"","phone":"2084753981","country":"United States","longitude":"-116.559282","latitude":"43.578989","tags":""},{"obdb_id":"2kids-brewing-company-san-diego","name":"2Kids Brewing Company","brewery_type":"micro","street":"8680 Miralani Dr Ste 123","address_2":"","address_3":"","city":"San Diego","state":"California","county_province":"","postal_code":"92126-6391","website_url":"http://www.2kidsBrewing.com","phone":"8584805437","country":"United States","longitude":"-117.137429","latitude":"32.896584","tags":""},{"obdb_id":"2nd-shift-brewing-co-saint-louis","name":"2nd Shift Brewing Co","brewery_type":"brewpub","street":"1601 Sublette Ave","address_2":"","address_3":"","city":"Saint Louis","state":"Missouri","county_province":"","postal_code":"63110-1924","website_url":"http://www.2ndshiftbrewing.com","phone":"6187910728","country":"United States","longitude":"-90.280526","latitude":"38.621943","tags":""},{"obdb_id":"2nd-story-brewing-company-philadelphia","name":"2nd Story Brewing Company","brewery_type":"brewpub","street":"117 Chestnut St Frnt","address_2":"","address_3":"","city":"Philadelphia","state":"Pennsylvania","county_province":"","postal_code":"19106-4700","website_url":"http://www.2ndstorybrewing.com/","phone":"2673145770","country":"United States","longitude":"","latitude":"","tags":""},{"obdb_id":"2sp-brewing-company-aston","name":"2SP Brewing Company","brewery_type":"micro","street":"120 Concord Rd","address_2":"","address_3":"","city":"Aston","state":"Pennsylvania","county_province":"","postal_code":"19014-2909","website_url":"http://www.2spbrewing.com","phone":"4844837860","country":"United States","longitude":"","latitude":"","tags":""},{"obdb_id":"3-beards-beer-company-williamsburg","name":"3 Beards Beer Company","brewery_type":"contract","street":"4 Main St","address_2":"","address_3":"","city":"Williamsburg","state":"Massachusetts","county_province":"","postal_code":"1096","website_url":"http://www.3beardsbeer.com","phone":"6173837039","country":"United States","longitude":"-72.7305059","latitude":"42.3923659","tags":""},{"obdb_id":"3-daughters-brewing-saint-petersburg","name":"3 Daughters Brewing","brewery_type":"micro","street":"222 22nd St S","address_2":"","address_3":"","city":"Saint Petersburg","state":"Florida","county_province":"","postal_code":"33712-1240","website_url":"http://www.3dbrewing.com","phone":"7274956002","country":"United States","longitude":"-82.6629721","latitude":"27.76899022","tags":""},{"obdb_id":"3-disciples-brewing-sebastopol","name":"3 Disciples Brewing","brewery_type":"micro","street":"","address_2":"","address_3":"","city":"Sebastopol","state":"California","county_province":"","postal_code":"95472-5937","website_url":"http://www.3disciplesbrewing.com/home","phone":"7072287309","country":"United States","longitude":"-122.8332502","latitude":"38.3845125","tags":""},{"obdb_id":"3-freaks-brewing-co-highlands-ranch","name":"3 Freaks Brewing Co","brewery_type":"micro","street":"7140 E County Line Rd","address_2":"","address_3":"","city":"Highlands Ranch","state":"Colorado","county_province":"","postal_code":"80126-3926","website_url":"http://www.3freaksbrewery.com","phone":"7202990994","country":"United States","longitude":"-104.9426656","latitude":"39.5659575","tags":""},{"obdb_id":"3-iron-brewing-company-colton","name":"3 Iron Brewing Company","brewery_type":"micro","street":"898 Via Lata Ste A","address_2":"","address_3":"","city":"Colton","state":"California","county_province":"","postal_code":"92324-3920","website_url":"http://www.3ironbrewingco.com","phone":"9095334892","country":"United States","longitude":"","latitude":"","tags":""},{"obdb_id":"3-keys-brewing-company-llc-bradenton","name":"3 Keys Brewing Company, LLC","brewery_type":"brewpub","street":"2505 Manatee Ave E","address_2":"","address_3":"","city":"Bradenton","state":"Florida","county_province":"","postal_code":"34208-2421","website_url":"http://www.3keysbrewing.com","phone":"9412180396","country":"United States","longitude":"-82.53393502","latitude":"27.49645026","tags":""},{"obdb_id":"3-nations-brewing-farmers-branch","name":"3 Nations Brewing","brewery_type":"micro","street":"2405 Squire Pl Ste 200","address_2":"","address_3":"","city":"Farmers Branch","state":"Texas","county_province":"","postal_code":"75234-4714","website_url":"http://www.threenationsbrewing.com","phone":"4696607184","country":"United States","longitude":"-96.89883128","latitude":"32.93044336","tags":""},{"obdb_id":"3-sheeps-brewing-co-sheboygan","name":"3 Sheeps Brewing Co","brewery_type":"micro","street":"1837 North Ave","address_2":"","address_3":"","city":"Sheboygan","state":"Wisconsin","county_province":"","postal_code":"53083-4620","website_url":"http://www.3sheepsbrewing.com","phone":"9209469715","country":"United States","longitude":"-87.73006524","latitude":"43.77384561","tags":""},{"obdb_id":"3-sheets-brewery-albany","name":"3 Sheets Brewery","brewery_type":"micro","street":"136 W 1st Ave","address_2":"","address_3":"","city":"Albany","state":"Oregon","county_province":"","postal_code":"97321","website_url":"http://www.3sheetsbrewery.com","phone":"5416190183","country":"United States","longitude":"","latitude":"","tags":""},{"obdb_id":"3-sons-brewing-co-dania","name":"3 Sons Brewing Co.","brewery_type":"proprietor","street":"236 N Federal Hwy","address_2":"","address_3":"","city":"Dania","state":"Florida","county_province":"","postal_code":"33004-2870","website_url":"http://www.3sonsbrewingco.com","phone":"9546013833","country":"United States","longitude":"-80.14361029","latitude":"26.04800238","tags":""},{"obdb_id":"3-stars-brewing-co-washington","name":"3 Stars Brewing Co","brewery_type":"micro","street":"6400 Chillum Pl NW Ste B","address_2":"","address_3":"","city":"Washington","state":"District of Columbia","county_province":"","postal_code":"20012-2111","website_url":"http://www.3starsbrewing.com","phone":"2026700333","country":"United States","longitude":"","latitude":"","tags":""},{"obdb_id":"3-trails-brewing-co-independence","name":"3 Trails Brewing Co","brewery_type":"micro","street":"111 N Main St ","address_2":"","address_3":"","city":"Independence","state":"Missouri","county_province":"","postal_code":"64050","website_url":"http://www.3trailsbrewing.com","phone":"8168866256","country":"United States","longitude":"-94.41265","latitude":"39.122385","tags":""},{"obdb_id":"30-mile-brewing-co-old-saybrook","name":"30 Mile Brewing Co.","brewery_type":"micro","street":"39 Ragged Rock Rd Unit 5","address_2":"","address_3":"","city":"Old Saybrook","state":"Connecticut","county_province":"","postal_code":"06475-1518","website_url":"http://www.30milebrewingco.com","phone":"8603395238","country":"United States","longitude":"","latitude":"","tags":""},{"obdb_id":"300-suns-brewing-company-longmont","name":"300 Suns Brewing Company","brewery_type":"brewpub","street":"335 1st Ave Unit C","address_2":"","address_3":"","city":"Longmont","state":"Colorado","county_province":"","postal_code":"80501-5958","website_url":"http://www.300sunsbrewing.com","phone":"","country":"United States","longitude":"","latitude":"","tags":""},{"obdb_id":"32-north-brewing-co-san-diego","name":"32 North Brewing Co","brewery_type":"micro","street":"8655 Production Ave Ste A","address_2":"","address_3":"","city":"San Diego","state":"California","county_province":"","postal_code":"92121-2258","website_url":"","phone":"","country":"United States","longitude":"","latitude":"","tags":""},{"obdb_id":"34-degree-north-experiment-station-shallotte","name":"34 Degree North Experiment Station","brewery_type":"micro","street":"4802 Main St","address_2":"","address_3":"","city":"Shallotte","state":"North Carolina","county_province":"","postal_code":"28470","website_url":"","phone":"","country":"United States","longitude":"-78.38636517","latitude":"33.97270364","tags":""},{"obdb_id":"350-brewing-co-tinley-park","name":"350 Brewing Co","brewery_type":"brewpub","street":"7144 183rd St","address_2":"","address_3":"","city":"Tinley Park","state":"Illinois","county_province":"","postal_code":"60477-3933","website_url":"http://www.350brewing.com","phone":"7088257339","country":"United States","longitude":"-87.79160288","latitude":"41.55864726","tags":""},{"obdb_id":"360-degree-brewing-company-sheffield-park","name":"360 Degree Brewing Company","brewery_type":"micro","street":"Bluebell Business Estate","address_2":"","address_3":"","city":"Sheffield Park","state":"","county_province":"East Sussex","postal_code":"TN22 3HQ","website_url":"https://www.360degreebrewing.com/","phone":"1825722375","country":"England","longitude":"-0.00086","latitude":"50.993912","tags":""},{"obdb_id":"38-state-brewing-littleton","name":"38 State Brewing","brewery_type":"micro","street":"8071 S Broadway Ste A","address_2":"","address_3":"","city":"Littleton","state":"Colorado","county_province":"","postal_code":"80122-2730","website_url":"http://www.38statebrew.com","phone":"7206383678","country":"United States","longitude":"","latitude":"","tags":""},{"obdb_id":"380-brewing-company-clancy","name":"380 Brewing Company","brewery_type":"planning","street":"","address_2":"","address_3":"","city":"Clancy","state":"Montana","county_province":"","postal_code":"59634","website_url":"","phone":"2065796509","country":"United States","longitude":"","latitude":"","tags":""},{"obdb_id":"38a-75a-brewing-rehoboth-beach","name":"38Â°-75Â° Brewing","brewery_type":"brewpub","street":"2000 Coastal Highway STE 105","address_2":"","address_3":"","city":"Rehoboth Beach","state":"Delaware","county_province":"","postal_code":"19971","website_url":"","phone":"3022278519","country":"United States","longitude":"-75.090191","latitude":"38.7074994","tags":""},{"obdb_id":"3cross-fermentation-cooperative-worcester","name":"3cross Fermentation Cooperative","brewery_type":"micro","street":"4 Knowlton Ave","address_2":"","address_3":"","city":"Worcester","state":"Massachusetts","county_province":"","postal_code":"1603","website_url":"http://www.3cross.coop","phone":"5086158195","country":"United States","longitude":"-71.83057593","latitude":"42.24364875","tags":""},{"obdb_id":"3halves-brewing-co-liberty","name":"3Halves Brewing Co","brewery_type":"brewpub","street":"110 E Kansas St","address_2":"","address_3":"","city":"Liberty","state":"Missouri","county_province":"","postal_code":"64068-2374","website_url":"http://www.3halvesbrewingco.com","phone":"8164296886","country":"United States","longitude":"-94.4190247","latitude":"39.2461993","tags":""},{"obdb_id":"3rd-degree-brewhouse-fuquay-varina","name":"3rd Degree Brewhouse","brewery_type":"micro","street":"1625 N Main St","address_2":"","address_3":"","city":"Fuquay Varina","state":"North Carolina","county_province":"","postal_code":"27526","website_url":"http://www.facebook.com/3rddegreebrewhouse/","phone":"9192015457","country":"United States","longitude":"-78.794223","latitude":"35.5914556","tags":""},{"obdb_id":"3rd-planet-brewing-niceville","name":"3rd Planet Brewing","brewery_type":"micro","street":"120 Partin Dr N","address_2":"","address_3":"","city":"Niceville","state":"Florida","county_province":"","postal_code":"32578-2053","website_url":"http://www.facebook.com/3rdplanetbrewing/","phone":"8505029952","country":"United States","longitude":"","latitude":"","tags":""},{"obdb_id":"3rd-rock-brewing-company-trenton","name":"3rd Rock Brewing Company","brewery_type":"micro","street":"134 Industrial Park Dr","address_2":"","address_3":"","city":"Trenton","state":"North Carolina","county_province":"","postal_code":"28585-9593","website_url":"http://www.3rockbrew.com","phone":"2526319213","country":"United States","longitude":"-77.36749285","latitude":"35.06939877","tags":""},{"obdb_id":"3rd-turn-brewing-louisville","name":"3rd Turn Brewing","brewery_type":"micro","street":"10408 Watterson Trl","address_2":"","address_3":"","city":"Louisville","state":"Kentucky","county_province":"","postal_code":"40299-3702","website_url":"http://www.3rdturnbrewing.com","phone":"","country":"United States","longitude":"-85.56656078","latitude":"38.19322725","tags":""},{"obdb_id":"3rd-wave-brewing-co-delmar","name":"3rd Wave Brewing Co","brewery_type":"micro","street":"501 N Bi State Blvd","address_2":"","address_3":"","city":"Delmar","state":"Delaware","county_province":"","postal_code":"19940-1106","website_url":"http://www.3rdwavebrewingco.com","phone":"3029070423","country":"United States","longitude":"","latitude":"","tags":""},{"obdb_id":"4-by-4-brewing-company-springfield","name":"4 By 4 Brewing Company","brewery_type":"micro","street":"2811 E Galloway St Ste A","address_2":"","address_3":"","city":"Springfield","state":"Missouri","county_province":"","postal_code":"65804-4601","website_url":"http://www.4by4brewingcompany.com","phone":"4178616400","country":"United States","longitude":"-93.239889","latitude":"37.147986","tags":""},{"obdb_id":"4-hands-brewing-co-saint-louis","name":"4 Hands Brewing Co","brewery_type":"regional","street":"1220 S 8th St","address_2":"","address_3":"","city":"Saint Louis","state":"Missouri","county_province":"","postal_code":"63104-3610","website_url":"http://www.4handsbrewery.com","phone":"3144361559","country":"United States","longitude":"-90.19762012","latitude":"38.61526593","tags":""},{"obdb_id":"4-noses-brewing-company-broomfield","name":"4 Noses Brewing Company","brewery_type":"micro","street":"8855 W 116th Cir Ste 3","address_2":"","address_3":"","city":"Broomfield","state":"Colorado","county_province":"","postal_code":"80021-2521","website_url":"http://4nosesbrewing.com","phone":"7204602797","country":"United States","longitude":"","latitude":"","tags":""},{"obdb_id":"4-stitch-brewing-co-bothell","name":"4 Stitch Brewing Co","brewery_type":"nano","street":"7 192nd St SW","address_2":"","address_3":"","city":"Bothell","state":"Washington","county_province":"","postal_code":"98012","website_url":"https://www.facebook.com/4stitchbeer/","phone":"2065958488","country":"United States","longitude":"-122.23281873068436","latitude":"47.82525617315347","tags":""},{"obdb_id":"400-north-brewing-sugarhill","name":"400 North Brewing","brewery_type":"planning","street":"","address_2":"","address_3":"","city":"Sugarhill","state":"Georgia","county_province":"","postal_code":"30518-7916","website_url":"http://400northbrewing.com","phone":"4047911119","country":"United States","longitude":"","latitude":"","tags":""},{"obdb_id":"405-brewing-co-norman","name":"(405) Brewing Co","brewery_type":"micro","street":"1716 Topeka St","address_2":"","address_3":"","city":"Norman","state":"Oklahoma","county_province":"","postal_code":"73069-8224","website_url":"http://www.405brewing.com","phone":"4058160490","country":"United States","longitude":"-97.46818222","latitude":"35.25738891","tags":""},{"obdb_id":"406-brewing-company-bozeman","name":"406 Brewing Company","brewery_type":"micro","street":"101 E Oak St,Â Ste D","address_2":"","address_3":"","city":"Bozeman","state":"Montana","county_province":"","postal_code":"59715-2967","website_url":"http://www.406brewingcompany.com","phone":"4065853745","country":"United States","longitude":"","latitude":"","tags":""},{"obdb_id":"411-broadway-ales-fresno","name":"411 Broadway Ales","brewery_type":"planning","street":"","address_2":"","address_3":"","city":"Fresno","state":"California","county_province":"","postal_code":"93721-2801","website_url":"","phone":"5412706076","country":"United States","longitude":"-119.7088613","latitude":"36.7295295","tags":""},{"obdb_id":"412-brews-mc-kees-rocks","name":"412 Brews","brewery_type":"brewpub","street":"706 Island Ave","address_2":"","address_3":"","city":"Mc Kees Rocks","state":"Pennsylvania","county_province":"","postal_code":"15136-3287","website_url":"http://www.412brews.com","phone":"","country":"United States","longitude":"","latitude":"","tags":""},{"obdb_id":"42-north-brewing-company-east-aurora","name":"42 North Brewing Company","brewery_type":"brewpub","street":"25 Pine St","address_2":"","address_3":"","city":"East Aurora","state":"New York","county_province":"","postal_code":"14052-1827","website_url":"http://www.42northbrewing.com","phone":"7168057500","country":"United States","longitude":"-78.607989","latitude":"42.769311","tags":""},{"obdb_id":"4204-main-street-brewing-co-belleville","name":"4204 Main Street Brewing Co","brewery_type":"brewpub","street":"4204 W Main St","address_2":"","address_3":"","city":"Belleville","state":"Illinois","county_province":"","postal_code":"62226","website_url":"","phone":"6184167261","country":"United States","longitude":"-90.02053343","latitude":"38.53796122","tags":""},{"obdb_id":"450-north-brewing-company-simmons-winery-columbus","name":"450 North Brewing Company @ Simmons Winery","brewery_type":"brewpub","street":"8111 E 450 N","address_2":"","address_3":"","city":"Columbus","state":"Indiana","county_province":"","postal_code":"47203-8106","website_url":"http://www.450northbrewing.com","phone":"8125460091","country":"United States","longitude":"","latitude":"","tags":""},{"obdb_id":"47-hills-brewing-co-south-san-francisco","name":"47 Hills Brewing Co","brewery_type":"brewpub","street":"137 S Linden Ave","address_2":"","address_3":"","city":"South San Francisco","state":"California","county_province":"","postal_code":"94080-6410","website_url":"http://47hillsbrewingcompany.com","phone":"6508678476","country":"United States","longitude":"-122.4136168","latitude":"37.64425595","tags":""},{"obdb_id":"49th-state-brewing-co-anchorage-anchorage","name":"49th State Brewing Co - Anchorage","brewery_type":"brewpub","street":"717 W 3rd Ave","address_2":"","address_3":"","city":"Anchorage","state":"Alaska","county_province":"","postal_code":"99501-2104","website_url":"http://www.49statebrewing.com/","phone":"9076832739","country":"United States","longitude":"-149.8958196","latitude":"61.2197366","tags":""},{"obdb_id":"49th-state-brewing-co-healy","name":"49th State Brewing Co","brewery_type":"micro","street":"248.4 Parks Hwy 5 Mile","address_2":"","address_3":"","city":"Healy","state":"Alaska","county_province":"","postal_code":"99743","website_url":"https://www.49statebrewing.com/denali","phone":"9076832739","country":"United States","longitude":"-149.017877","latitude":"63.864759","tags":""},{"obdb_id":"4bs-brewery-cedaredge","name":"4B's Brewery","brewery_type":"brewpub","street":"215 W Main St","address_2":"","address_3":"","city":"Cedaredge","state":"Colorado","county_province":"","postal_code":"81413-3339","website_url":"http://www.4bsbrewery.com","phone":"9708567762","country":"United States","longitude":"-107.925782","latitude":"38.900614","tags":""},{"obdb_id":"4kd-crick-brewery-defiance","name":"4kd Crick Brewery","brewery_type":"brewpub","street":"211 Carpenter Rd","address_2":"","address_3":"","city":"Defiance","state":"Ohio","county_province":"","postal_code":"43512-1718","website_url":"http://Www.4kdcrickbrewery.com","phone":"4199562863","country":"United States","longitude":"-84.341647","latitude":"41.296252","tags":""},{"obdb_id":"4th-tap-brewing-cooperative-austin","name":"4th Tap Brewing Cooperative","brewery_type":"micro","street":"10615 Metric Blvd","address_2":"","address_3":"","city":"Austin","state":"Texas","county_province":"","postal_code":"78758-4520","website_url":"","phone":"5129089817","country":"United States","longitude":"-97.7118913","latitude":"30.3852024","tags":""},{"obdb_id":"5-alarm-brewing-co-lake-mills","name":"5 Alarm Brewing Co","brewery_type":"micro","street":"211 W Main St","address_2":"","address_3":"","city":"Lake Mills","state":"Iowa","county_province":"","postal_code":"50450","website_url":"","phone":"6415922739","country":"United States","longitude":"-93.53398788","latitude":"43.41926615","tags":""},{"obdb_id":"5-lakes-brewing-co-dorr","name":"5 Lakes Brewing Co.","brewery_type":"brewpub","street":"1638 142nd Ave","address_2":"","address_3":"","city":"Dorr","state":"Michigan","county_province":"","postal_code":"49323-9312","website_url":"http://www.5lakesbrewing.com","phone":"6163599555","country":"United States","longitude":"-85.70445518","latitude":"42.72497157","tags":""},{"obdb_id":"5-lamps-brewery-dublin","name":"5 Lamps Brewery","brewery_type":"regional","street":"84-87 Camden St.","address_2":"Saint Kevin's","address_3":"Dublin 2","city":"Dublin","state":"","county_province":"Dublin","postal_code":"D02 DH36","website_url":"https://the5lampsbrewery.com/home/","phone":"","country":"Ireland","longitude":"-6.26585621","latitude":"53.33596635","tags":""},{"obdb_id":"5-north-brewing-company-spokane","name":"5 North Brewing Company","brewery_type":"brewpub","street":"6501 N Cedar Rd","address_2":"","address_3":"","city":"Spokane","state":"Washington","county_province":"","postal_code":"99208","website_url":"http://5northbrewingcompany.com/","phone":"5093217818","country":"United States","longitude":"-117.43284963068433","latitude":"47.71758682546933","tags":""},{"obdb_id":"5-rabbit-cerveceria-inc-chicago","name":"5 Rabbit Cerveceria Inc","brewery_type":"micro","street":"6398 W 74th St","address_2":"","address_3":"","city":"Chicago","state":"Illinois","county_province":"","postal_code":"60638-6129","website_url":"http://www.5rabbitbrewery.com","phone":"3128959591","country":"United States","longitude":"-87.6572069","latitude":"41.7595502","tags":""},{"obdb_id":"5-rights-brewing-co-marysville","name":"5 Rights Brewing Co","brewery_type":"micro","street":"1514 3rd St","address_2":"","address_3":"","city":"Marysville","state":"Washington","county_province":"","postal_code":"98270","website_url":"http://www.5rightsbrewing.com","phone":"4253341026","country":"United States","longitude":"-122.17629063068435","latitude":"48.05156014950019","tags":""},{"obdb_id":"5-rivers-brewing-llc-spanish-fort","name":"5 Rivers Brewing LLC","brewery_type":"planning","street":"","address_2":"","address_3":"","city":"Spanish Fort","state":"Alabama","county_province":"","postal_code":"36527-3161","website_url":"http://5riversbrewing.com","phone":"2516897483","country":"United States","longitude":"-87.9152724","latitude":"30.6749127","tags":""},{"obdb_id":"5-seasons-brewing-co-prado-sandy-springs","name":"5 Seasons Brewing Co - Prado","brewery_type":"brewpub","street":"5600 Roswell Rd","address_2":"","address_3":"","city":"Sandy Springs","state":"Georgia","county_province":"","postal_code":"30342-1150","website_url":"http://www.5seasonsbrewing.com","phone":"4042555911","country":"United States","longitude":"-84.3796711","latitude":"33.9078086","tags":""},{"obdb_id":"5-seasons-brewing-co-westside-atlanta","name":"5 Seasons Brewing Co - Westside","brewery_type":"brewpub","street":"1000 Marietta St NW Ste 204","address_2":"","address_3":"","city":"Atlanta","state":"Georgia","county_province":"","postal_code":"30318-0683","website_url":"http://www.5seasonsbrewing.com","phone":"4048753232","country":"United States","longitude":"","latitude":"","tags":""},{"obdb_id":"5-stones-artisan-brewery-new-braunfels","name":"5 Stones Artisan Brewery","brewery_type":"micro","street":"11335 Farm To Market Road 1863","address_2":"","address_3":"","city":"New Braunfels","state":"Texas","county_province":"","postal_code":"78132","website_url":"","phone":"2103808215","country":"United States","longitude":"-98.232345","latitude":"29.711365","tags":""},{"obdb_id":"512-brewing-co-austin","name":"(512) Brewing Co","brewery_type":"micro","street":"407 Radam Ln Ste F200","address_2":"","address_3":"","city":"Austin","state":"Texas","county_province":"","postal_code":"78745-1197","website_url":"http://www.512brewing.com","phone":"5129211545","country":"United States","longitude":"","latitude":"","tags":""},{"obdb_id":"515-brewing-co-clive","name":"515 Brewing Co","brewery_type":"micro","street":"7700 University Ave","address_2":"","address_3":"","city":"Clive","state":"Iowa","county_province":"","postal_code":"50325-1271","website_url":"http://www.515brewing.com","phone":"5156614615","country":"United States","longitude":"-93.7228408","latitude":"41.599992","tags":""},{"obdb_id":"5150-brewing-at-the-brass-tap-rocklin-rocklin","name":"5150 Brewing At The Brass Tap Rocklin","brewery_type":"micro","street":"5150 Commons Dr Ste 101","address_2":"","address_3":"","city":"Rocklin","state":"California","county_province":"","postal_code":"95677-3925","website_url":"http://www.brasstaprocklin.com","phone":"9162462729","country":"United States","longitude":"-121.207331","latitude":"38.8047402","tags":""},{"obdb_id":"51st-state-brewing-company-kingsford","name":"51st State Brewing Company","brewery_type":"brewpub","street":"115 Harding Ave","address_2":"","address_3":"","city":"Kingsford","state":"Michigan","county_province":"","postal_code":"49802-3815","website_url":"http://www.51ststatebrewingcompany.com","phone":"9068282167","country":"United States","longitude":"-88.08819","latitude":"45.808408","tags":""},{"obdb_id":"51st-ward-beer-company-westmont","name":"51st Ward Beer Company","brewery_type":"contract","street":"323 N Washington St","address_2":"","address_3":"","city":"Westmont","state":"Illinois","county_province":"","postal_code":"60559-1512","website_url":"","phone":"7732205899","country":"United States","longitude":"-87.981157","latitude":"41.804494","tags":""},{"obdb_id":"54-40-brewing-company-washougal","name":"54-40 Brewing Company","brewery_type":"brewpub","street":"3801 S Truman Rd Ste 1","address_2":"","address_3":"","city":"Washougal","state":"Washington","county_province":"","postal_code":"98671-2589","website_url":"http://www.54-40brewing.com","phone":"3609077062","country":"United States","longitude":"-122.32693485397346","latitude":"45.56577849034631","tags":""},{"obdb_id":"550-brewing-aztec","name":"550 Brewing","brewery_type":"proprietor","street":"119 E Chuska St","address_2":"","address_3":"","city":"Aztec","state":"New Mexico","county_province":"","postal_code":"87410-2110","website_url":"http://Www.550brew.com","phone":"5054861094","country":"United States","longitude":"-107.9950235","latitude":"36.8213739","tags":""},{"obdb_id":"559-local-brewing-clovis","name":"559 Local Brewing","brewery_type":"micro","street":"608 4th St","address_2":"","address_3":"","city":"Clovis","state":"California","county_province":"","postal_code":"93612-1183","website_url":"http://www.fresnobrewingcompany.com","phone":"5594731875","country":"United States","longitude":"-119.7017487","latitude":"36.82517171","tags":""},{"obdb_id":"56-brewing-minneapolis","name":"56 Brewing","brewery_type":"micro","street":"3055 Columbia Ave NE Ste 102","address_2":"","address_3":"","city":"Minneapolis","state":"Minnesota","county_province":"","postal_code":"55418-1860","website_url":"http://www.56brewing.com","phone":"6124040056","country":"United States","longitude":"","latitude":"","tags":""},{"obdb_id":"5770-brewery-teutopolis","name":"5770 Brewery","brewery_type":"micro","street":"303A W Main St","address_2":"","address_3":"","city":"Teutopolis","state":"Illinois","county_province":"","postal_code":"62467-1355","website_url":"http://www.5770brewery.com","phone":"6183397841","country":"United States","longitude":"-88.47806652","latitude":"39.13142194","tags":""},{"obdb_id":"5th-element-brewing-leander","name":"5th Element Brewing","brewery_type":"planning","street":"","address_2":"","address_3":"","city":"Leander","state":"Texas","county_province":"","postal_code":"78641-4009","website_url":"","phone":"9156378199","country":"United States","longitude":"","latitude":"","tags":""},{"obdb_id":"5th-line-brewing-co-yakima","name":"5th Line Brewing Co","brewery_type":"micro","street":"1015 E Lincoln Ave Ste 106","address_2":"","address_3":"","city":"Yakima","state":"Washington","county_province":"","postal_code":"98901","website_url":"https://5thlinebrewing.com/","phone":"5093676300","country":"United States","longitude":"-120.49304576136873","latitude":"46.61136700515121","tags":""}
]
